[
    {
        "id": "HS001",
        "name": "Berat Castle",
        "category": "Historical Site",
        "typology": "Castle",
        "field": "Architecture",
        "place": "Berat",
        "municipality": "Berat Municipality",
        "county": "Berat County",
        "latitude": "40.7057",
        "longitude": "19.9522"
    },
    {
        "id": "HS002",
        "name": "Butrint National Park",
        "category": "Historical Site",
        "typology": "Archaeological Site",
        "field": "Archaeology",
        "place": "Butrint",
        "municipality": "Sarandë Municipality",
        "county": "Vlorë County",
        "latitude": "39.7457",
        "longitude": "20.0207"
    },
    {
        "id": "HS003",
        "name": "Gjirokastër Castle",
        "category": "Historical Site",
        "typology": "Castle",
        "field": "Architecture",
        "place": "Gjirokastër",
        "municipality": "Gjirokastër Municipality",
        "county": "Gjirokastër County",
        "latitude": "40.0750",
        "longitude": "20.1414"
    },
    {
        "id": "HS004",
        "name": "Krujë Castle",
        "category": "Historical Site",
        "typology": "Castle",
        "field": "Architecture",
        "place": "Krujë",
        "municipality": "Krujë Municipality",
        "county": "Durrës County",
        "latitude": "41.5090",
        "longitude": "19.7930"
    },
    {
        "id": "HS005",
        "name": "Rozafa Castle",
        "category": "Historical Site",
        "typology": "Castle",
        "field": "Architecture",
        "place": "Shkodër",
        "municipality": "Shkodër Municipality",
        "county": "Shkodër County",
        "latitude": "42.0468",
        "longitude": "19.4985"
    },
    {
        "id": "HS006",
        "name": "Apollonia",
        "category": "Historical Site",
        "typology": "Archaeological Site",
        "field": "Archaeology",
        "place": "Apollonia",
        "municipality": "Fier Municipality",
        "county": "Fier County",
        "latitude": "40.7275",
        "longitude": "19.5667"
    },
    {
        "id": "HS007",
        "name": "Durrës Amphitheatre",
        "category": "Historical Site",
        "typology": "Amphitheatre",
        "field": "Architecture",
        "place": "Durrës",
        "municipality": "Durrës Municipality",
        "county": "Durrës County",
        "latitude": "41.3131",
        "longitude": "19.4416"
    },
    {
        "id": "HS008",
        "name": "Ethnographic Museum of Kruja",
        "category": "Historical Site",
        "typology": "Museum",
        "field": "Cultural Heritage",
        "place": "Krujë",
        "municipality": "Krujë Municipality",
        "county": "Durrës County",
        "latitude": "41.5085",
        "longitude": "19.7935"
    },
    {
        "id": "HS009",
        "name": "National Museum of Medieval Art",
        "category": "Historical Site",
        "typology": "Museum",
        "field": "Art",
        "place": "Korçë",
        "municipality": "Korçë Municipality",
        "county": "Korçë County",
        "latitude": "40.6195",
        "longitude": "20.7808"
    },
    {
        "id": "HS010",
        "name": "Venetian Tower, Durrës",
        "category": "Historical Site",
        "typology": "Fortification",
        "field": "Architecture",
        "place": "Durrës",
        "municipality": "Durrës Municipality",
        "county": "Durrës County",
        "latitude": "41.3127",
        "longitude": "19.4453"
    },
    {
        "id": "B001",
        "name": "Ksamil Beach",
        "category": "Beach",
        "typology": "Beach",
        "field": "Tourism",
        "place": "Ksamil",
        "municipality": "Sarandë Municipality",
        "county": "Vlorë County",
        "latitude": "39.7679",
        "longitude": "19.9990"
    },
    {
        "id": "B002",
        "name": "Dhermi Beach",
        "category": "Beach",
        "typology": "Beach",
        "field": "Tourism",
        "place": "Dhërmi",
        "municipality": "Himarë Municipality",
        "county": "Vlorë County",
        "latitude": "40.1515",
        "longitude": "19.6336"
    },
    {
        "id": "B003",
        "name": "Jale Beach",
        "category": "Beach",
        "typology": "Beach",
        "field": "Tourism",
        "place": "Jale",
        "municipality": "Himarë Municipality",
        "county": "Vlorë County",
        "latitude": "40.0953",
        "longitude": "19.7375"
    },
    {
        "id": "B004",
        "name": "Gjipe Beach",
        "category": "Beach",
        "typology": "Beach",
        "field": "Tourism",
        "place": "Gjipe",
        "municipality": "Himarë Municipality",
        "county": "Vlorë County",
        "latitude": "40.1411",
        "longitude": "19.6784"
    },
    {
        "id": "B005",
        "name": "Palasa Beach",
        "category": "Beach",
        "typology": "Beach",
        "field": "Tourism",
        "place": "Palasë",
        "municipality": "Himarë Municipality",
        "county": "Vlorë County",
        "latitude": "40.1592",
        "longitude": "19.6439"
    },
    {
        "id": "B006",
        "name": "Livadhi Beach",
        "category": "Beach",
        "typology": "Beach",
        "field": "Tourism",
        "place": "Livadhi",
        "municipality": "Himarë Municipality",
        "county": "Vlorë County",
        "latitude": "40.1022",
        "longitude": "19.7444"
    },
    {
        "id": "B007",
        "name": "Borsh Beach",
        "category": "Beach",
        "typology": "Beach",
        "field": "Tourism",
        "place": "Borsh",
        "municipality": "Himarë Municipality",
        "county": "Vlorë County",
        "latitude": "40.0545",
        "longitude": "19.8738"
    },
    {
        "id": "B008",
        "name": "Spille Beach",
        "category": "Beach",
        "typology": "Beach",
        "field": "Tourism",
        "place": "Spille",
        "municipality": "Kavajë Municipality",
        "county": "Tirana County",
        "latitude": "40.9575",
        "longitude": "19.5497"
    },
    {
        "id": "B009",
        "name": "Velipoja Beach",
        "category": "Beach",
        "typology": "Beach",
        "field": "Tourism",
        "place": "Velipojë",
        "municipality": "Shkodër Municipality",
        "county": "Shkodër County",
        "latitude": "41.8672",
        "longitude": "19.4265"
    },
    {
        "id": "B010",
        "name": "Shëngjin Beach",
        "category": "Beach",
        "typology": "Beach",
        "field": "Tourism",
        "place": "Shëngjin",
        "municipality": "Lezhë Municipality",
        "county": "Lezhë County",
        "latitude": "41.8116",
        "longitude": "19.5937"
    },
    {
        "id": "M001",
        "name": "Valbona Valley",
        "category": "Mountain Route",
        "typology": "Valley",
        "field": "Hiking",
        "place": "Valbona",
        "municipality": "Tropojë Municipality",
        "county": "Kukës County",
        "latitude": "42.4633",
        "longitude": "19.8984"
    },
    {
        "id": "M002",
        "name": "Theth National Park",
        "category": "Mountain Route",
        "typology": "National Park",
        "field": "Hiking",
        "place": "Theth",
        "municipality": "Shkodër Municipality",
        "county": "Shkodër County",
        "latitude": "42.3981",
        "longitude": "19.7742"
    },
    {
        "id": "M003",
        "name": "Llogara Pass",
        "category": "Mountain Route",
        "typology": "Mountain Pass",
        "field": "Scenic Drive",
        "place": "Llogara",
        "municipality": "Vlorë Municipality",
        "county": "Vlorë County",
        "latitude": "40.2045",
        "longitude": "19.6355"
    },
    {
        "id": "M004",
        "name": "Mali i Dajtit",
        "category": "Mountain Route",
        "typology": "Mountain",
        "field": "Hiking",
        "place": "Dajti",
        "municipality": "Tirana Municipality",
        "county": "Tirana County",
        "latitude": "41.3269",
        "longitude": "19.9216"
    },
    {
        "id": "M005",
        "name": "Maja e Jezercës",
        "category": "Mountain Route",
        "typology": "Mountain",
        "field": "Climbing",
        "place": "Jezercë",
        "municipality": "Tropojë Municipality",
        "county": "Kukës County",
        "latitude": "42.4536",
        "longitude": "19.8042"
    },
    {
        "id": "M006",
        "name": "Tomorr Mountain",
        "category": "Mountain Route",
        "typology": "Mountain",
        "field": "Hiking",
        "place": "Tomorr",
        "municipality": "Skrapar Municipality",
        "county": "Berat County",
        "latitude": "40.6195",
        "longitude": "20.1094"
    },
    {
        "id": "M007",
        "name": "Korab Mountain",
        "category": "Mountain Route",
        "typology": "Mountain",
        "field": "Hiking",
        "place": "Korab",
        "municipality": "Dibër Municipality",
        "county": "Dibër County",
        "latitude": "41.7917",
        "longitude": "20.5461"
    },
    {
        "id": "M008",
        "name": "Gjallica Mountain",
        "category": "Mountain Route",
        "typology": "Mountain",
        "field": "Hiking",
        "place": "Gjallica",
        "municipality": "Kukës Municipality",
        "county": "Kukës County",
        "latitude": "42.0833",
        "longitude": "20.4167"
    },
    {
        "id": "M009",
        "name": "Lura National Park",
        "category": "Mountain Route",
        "typology": "National Park",
        "field": "Hiking",
        "place": "Lura",
        "municipality": "Dibër Municipality",
        "county": "Dibër County",
        "latitude": "41.7833",
        "longitude": "20.2000"
    },
    {
        "id": "M010",
        "name": "Mali i Gramozit",
        "category": "Mountain Route",
        "typology": "Mountain",
        "field": "Hiking",
        "place": "Gramoz",
        "municipality": "Kolonjë Municipality",
        "county": "Korçë County",
        "latitude": "40.3833",
        "longitude": "20.9167"
    },
    {
        "id": "HS011",
        "name": "Kalaja Kanines",
        "category": "Historical Site",
        "typology": "Castel",
        "field": "Tourism",
        "place": "Kanine",
        "municipality": "Vlore",
        "county": "Vlore",
        "latitude": "40.444306009778124",
        "longitude": "19.51991991534318"
    },
    {
        "id": "HS012",
        "name": "Kalaja Petreles",
        "category": "Historical Site",
        "typology": "Castel",
        "field": "Tourism",
        "place": "Petrele",
        "municipality": "Mullet",
        "county": "Tirane",
        "latitude": "41.255030502812765",
        "longitude": "19.854397625987673"
    },
    {
        "id": "HS013",
        "name": "Kalaja Tiranes",
        "category": "Historical Site",
        "typology": "Castel",
        "field": "Tourism",
        "place": "Tirane",
        "municipality": "Tirane",
        "county": "Tirane",
        "latitude": "41.32647575590762",
        "longitude": "19.822145597154606",
        "info": "Fortress of Justinian (Albanian: Kalaja e Justinianit) or simply known as Tirana Castle (Albanian: Kalaja e Tiranës) is a castle in Tirana, Albania. Its history dates back before 1300 and is a remnant from the Byzantine-era. The fortress is the place where the main east–west and north–south roads crossed, and formed the heart of Tirana. The current fortification has three known towers and it is undergoing a process of restoration, for touristic purposes. Inside the fortified walls of the former fortress, there are many buildings that can be visited, including restaurants, hotels, and cultural institutions.[1]\r\n\r\nAbout all that is left of the fortress above ground is a 6-metre (20 ft) high Ottoman-era wall, covered in vines. The recently uncovered wall foundations were incorporated into the pedestrianised Murat Toptani Street, while a mosaic commemorating the 100th Anniversary of Albania's Independence was unveiled near the Albanian Parliament.[2]\r\n\r\nThe Castle of Tirana was declared a monument of culture of first category on 10 June 1973 and the new tracks of walls of Tirana Castle were declared a cultural monument on 15 May 2008.[3]",
        "opening_hours": "6am-2am",
        "admission_fee": "Freee",
        "contact_info": "069 685 4705",
        "tags": "",
        "image": null
    },
    {
        "id": "HS014",
        "name": "Kalaja Tiranes",
        "category": "Historical Site",
        "typology": "Castel",
        "field": "Tourism",
        "place": "Tirane",
        "municipality": "Tirane",
        "county": "Tirane",
        "latitude": "41.32647575590762",
        "longitude": "19.822145597154606",
        "info": "Fortress of Justinian (Albanian: Kalaja e Justinianit) or simply known as Tirana Castle (Albanian: Kalaja e Tiranës) is a castle in Tirana, Albania. Its history dates back before 1300 and is a remnant from the Byzantine-era. The fortress is the place where the main east–west and north–south roads crossed, and formed the heart of Tirana. The current fortification has three known towers and it is undergoing a process of restoration, for touristic purposes. Inside the fortified walls of the former fortress, there are many buildings that can be visited, including restaurants, hotels, and cultural institutions.[1]\r\n\r\nAbout all that is left of the fortress above ground is a 6-metre (20 ft) high Ottoman-era wall, covered in vines. The recently uncovered wall foundations were incorporated into the pedestrianised Murat Toptani Street, while a mosaic commemorating the 100th Anniversary of Albania's Independence was unveiled near the Albanian Parliament.[2]\r\n\r\nThe Castle of Tirana was declared a monument of culture of first category on 10 June 1973 and the new tracks of walls of Tirana Castle were declared a cultural monument on 15 May 2008.[3]",
        "opening_hours": "6am-2am",
        "admission_fee": "Freee",
        "contact_info": "069 685 4705",
        "tags": "Family Frendly",
        "image": "static/uploads\\attractivealbania  logo.jpeg"
    },
    {
        "id": "HS015",
        "name": "Plazhi Gjeneralit",
        "category": "Beach",
        "typology": "Beach",
        "field": "Tourism",
        "place": "Qerret",
        "municipality": "Kavaje",
        "county": "Kavaj, Tirane",
        "latitude": "41.32647575590762",
        "longitude": "19.822145597154606",
        "info": "sdkfljhsdjkgfdjkghsdlsdkjlgsaljkfhgdlkjfhsdaugdskfdsjfkdsjfhsdfkdsufpioeusrkmflkdv",
        "opening_hours": "6am-2am",
        "admission_fee": "Freee",
        "contact_info": "069 685 4705",
        "tags": "Family Frendly",
        "image": "static/uploads/attractivealbania  logo.jpeg"
    }
]